city id,City,Lat,Lng,Max Temp,Humidity,Cloudiness,Wind Speed,Country,Date
0,oksbol,55.63,8.29,48.99,87,0,9.17,DK,1604514658
1,chokurdakh,70.63,147.92,-14.19,84,0,5.84,RU,1604514658
2,grahamstown,-33.3,26.53,60.89,93,100,9.86,ZA,1604514658
3,mount gambier,-37.83,140.77,46.4,81,40,8.05,AU,1604514658
4,asau,46.43,26.4,36.0,97,0,1.39,RO,1604514658
5,bilibino,68.05,166.44,4.62,91,100,5.61,RU,1604514658
6,tobetsu,43.22,141.52,39.0,89,78,14.18,JP,1604514658
7,pangnirtung,66.15,-65.71,8.6,60,20,13.87,CA,1604514658
8,bluff,-46.6,168.33,57.0,97,79,4.0,NZ,1604514659
9,new norfolk,-42.78,147.06,45.0,69,0,1.01,AU,1604514659
10,touros,-5.2,-35.46,86.0,58,20,13.87,BR,1604514659
11,maniitsoq,65.42,-52.9,28.31,96,100,26.15,GL,1604514659
12,havre-saint-pierre,50.23,-63.6,28.4,63,1,18.34,CA,1604514659
13,mehamn,71.04,27.85,35.6,80,0,11.41,NO,1604514659
14,albany,42.6,-73.97,57.0,44,2,8.5,US,1604514430
15,cape town,-33.93,18.42,71.6,64,20,19.46,ZA,1604514572
16,wodonga,-36.12,146.88,55.4,76,90,11.41,AU,1604514419
17,busselton,-33.65,115.33,52.0,76,100,5.01,AU,1604514659
18,terme,41.21,36.97,60.8,82,75,16.11,TR,1604514659
19,salalah,17.02,54.09,77.0,65,0,4.7,OM,1604514660
20,lebu,-37.62,-73.65,55.8,61,0,9.51,CL,1604514660
21,ust-nera,64.57,143.2,1.02,85,100,6.2,RU,1604514660
22,aswan,24.09,32.91,71.19,32,0,11.5,EG,1604514660
23,uige,-7.61,15.06,70.21,93,100,0.92,AO,1604514660
24,sao joao da barra,-21.64,-41.05,77.0,61,0,13.87,BR,1604514660
25,dikson,73.51,80.55,1.47,92,0,7.85,RU,1604514660
26,homer,59.64,-151.55,21.0,44,1,3.36,US,1604514661
27,ushuaia,-54.8,-68.3,62.6,36,0,6.93,AR,1604514661
28,butaritari,3.07,172.79,80.58,73,100,12.39,KI,1604514661
29,lasa,46.62,10.7,53.01,86,40,6.93,IT,1604514661
30,coihaique,-45.58,-72.07,53.6,54,75,4.7,CL,1604514661
31,qaqortoq,60.72,-46.03,30.2,86,75,5.82,GL,1604514661
32,comayagua,14.45,-87.63,68.0,100,90,12.75,HN,1604514662
33,punta arenas,-53.15,-70.92,46.4,81,90,4.7,CL,1604514495
34,agadir,30.42,-9.6,66.2,77,100,16.11,MA,1604514565
35,dunedin,-45.87,170.5,60.89,72,85,4.94,NZ,1604514662
36,fort frances,48.6,-93.4,62.6,29,1,9.17,CA,1604514662
37,nikolskoye,59.7,30.79,46.4,87,90,6.71,RU,1604514662
38,puerto ayora,-0.74,-90.35,80.6,65,40,16.11,EC,1604514662
39,kysyl-syr,63.9,122.76,0.88,93,88,4.72,RU,1604514662
40,korla,41.76,86.15,42.28,53,4,8.75,CN,1604514663
41,teknaf,20.86,92.31,76.75,87,0,4.74,BD,1604514663
42,avera,33.19,-82.53,69.8,31,1,5.82,US,1604514663
43,russell,32.35,-85.2,71.6,33,1,4.7,US,1604514603
44,mataura,-46.19,168.86,57.0,97,100,4.0,NZ,1604514663
45,namatanai,-3.67,152.43,80.65,79,100,7.27,PG,1604514663
46,luganville,-15.53,167.17,75.2,94,75,3.38,VU,1604514663
47,port elizabeth,-33.92,25.57,68.0,88,0,6.93,ZA,1604514663
48,nelson bay,-32.72,152.15,64.4,82,40,4.7,AU,1604514663
49,caravelas,-17.71,-39.25,72.36,84,100,6.8,BR,1604514664
50,tecoh,20.75,-89.47,84.0,65,90,16.11,MX,1604514664
51,atuona,-9.8,-139.03,78.75,77,14,21.52,PF,1604514664
52,porto torres,40.84,8.4,59.0,93,0,4.7,IT,1604514664
53,khatanga,71.97,102.5,-5.98,91,18,8.46,RU,1604514664
54,port alfred,-33.59,26.89,68.7,82,88,10.13,ZA,1604514581
55,pevek,69.7,170.31,2.28,86,95,3.24,RU,1604514629
56,jamestown,42.1,-79.24,62.6,39,1,14.99,US,1604514664
57,grindavik,63.84,-22.43,44.6,75,75,32.21,IS,1604514665
58,kalianget,-7.05,113.93,83.23,77,2,10.45,ID,1604514665
59,santa isabel do rio negro,-0.41,-65.02,86.45,70,100,3.27,BR,1604514665
60,kruisfontein,-34.0,24.73,69.01,82,100,4.0,ZA,1604514665
61,rikitea,-23.12,-134.97,73.36,76,0,16.11,PF,1604514665
62,gamba,-2.65,10.0,76.64,91,100,3.47,GA,1604514665
63,agadez,19.75,10.25,73.38,24,60,6.13,NE,1604514665
64,opuwo,-18.06,13.84,73.33,23,0,10.45,NA,1604514665
65,bredasdorp,-34.53,20.04,66.2,82,42,10.29,ZA,1604514665
66,novo aripuana,-5.12,-60.38,90.05,50,100,3.58,BR,1604514666
67,tessalit,20.2,1.01,78.37,19,42,5.03,ML,1604514666
68,hambantota,6.12,81.12,79.43,82,86,2.95,LK,1604514666
69,lieksa,63.32,30.02,43.09,83,40,13.58,FI,1604514666
70,inuvik,68.35,-133.72,5.0,84,61,3.36,CA,1604514666
71,klaksvik,62.23,-6.59,50.0,100,94,24.16,FO,1604514666
72,prince albert,53.2,-105.77,44.6,70,75,8.05,CA,1604514666
73,bethel,41.37,-73.41,61.0,38,1,9.17,US,1604514495
74,hilo,19.73,-155.09,77.0,83,90,4.7,US,1604514656
75,omboue,-1.57,9.26,76.1,91,100,4.54,GA,1604514666
76,wenchi,7.74,-2.1,79.79,65,0,2.46,GH,1604514667
77,tuktoyaktuk,69.45,-133.04,10.4,85,90,12.75,CA,1604514667
78,ajdabiya,30.76,20.23,68.74,65,100,7.27,LY,1604514667
79,arrecife,28.96,-13.55,69.8,68,40,13.87,ES,1604514667
80,luderitz,-26.65,15.16,62.98,86,92,13.04,NA,1604514667
81,coquimbo,-29.95,-71.34,60.8,67,90,14.99,CL,1604514667
82,strezhevoy,60.73,77.59,33.8,97,90,11.18,RU,1604514667
83,saldanha,-33.01,17.94,66.2,72,88,5.82,ZA,1604514667
84,taihe,30.87,105.38,58.91,67,100,4.05,CN,1604514667
85,kapaa,22.08,-159.32,77.0,94,40,4.7,US,1604514668
86,plainview,40.78,-73.47,63.0,51,1,13.87,US,1604514636
87,georgetown,5.41,100.34,80.6,88,20,3.36,MY,1604514444
88,kodinsk,58.69,99.18,22.91,96,100,8.25,RU,1604514668
89,knysna,-34.04,23.05,64.4,100,90,11.41,ZA,1604514668
90,provideniya,64.38,-173.3,30.36,98,100,8.68,RU,1604514668
91,chervone,49.96,28.86,42.57,89,0,4.79,UA,1604514668
92,sinnai,39.3,9.2,64.99,82,0,5.82,IT,1604514669
93,mumford,5.26,-0.76,80.38,82,39,7.72,GH,1604514669
94,upernavik,72.79,-56.15,17.98,96,100,8.01,GL,1604514669
95,constitucion,-35.33,-72.42,59.92,58,71,21.94,CL,1604514669
96,hobart,-42.88,147.33,46.4,61,2,11.41,AU,1604514599
97,russellville,35.28,-93.13,72.0,43,1,5.82,US,1604514562
98,debre tabor,11.85,38.02,53.44,77,0,1.68,ET,1604514669
99,road town,18.42,-64.62,86.0,66,20,10.29,VG,1604514533
100,port moresby,-9.44,147.18,75.2,100,90,4.7,PG,1604514570
101,beringovskiy,63.05,179.32,36.28,92,100,17.13,RU,1604514669
102,siavonga,-16.54,28.71,82.38,55,0,5.55,ZM,1604514670
103,thompson,55.74,-97.86,26.6,92,90,3.36,CA,1604514670
104,palmerston,-12.49,130.98,84.2,74,90,4.7,AU,1604514670
105,bolshoye murashkino,55.78,44.78,39.61,95,0,6.17,RU,1604514670
106,ixtapa,20.7,-105.2,84.2,48,5,6.93,MX,1604514670
107,bani,18.28,-70.33,86.0,79,75,5.82,DO,1604514562
108,rawson,-43.3,-65.1,76.75,34,27,25.81,AR,1604514671
109,santa marta,11.24,-74.2,86.0,74,65,6.31,CO,1604514518
110,delvada,20.77,71.03,78.37,49,0,6.31,IN,1604514671
111,norman wells,65.28,-126.83,-5.8,83,75,2.24,CA,1604514671
112,halifax,44.65,-63.57,37.0,43,20,5.82,CA,1604514650
113,arraial do cabo,-22.97,-42.03,77.0,69,40,4.7,BR,1604514671
114,saint-pierre,-21.34,55.48,73.4,60,20,11.41,RE,1604514671
115,carnarvon,-24.87,113.63,71.6,83,0,17.22,AU,1604514671
116,mincivan,39.03,46.72,59.79,76,100,1.28,AZ,1604514671
117,airai,-8.93,125.41,61.3,83,67,2.33,TL,1604514672
118,sernur,56.93,49.15,37.89,95,100,6.11,RU,1604514672
119,nabire,-3.37,135.48,75.11,87,92,4.63,ID,1604514672
120,iqaluit,63.75,-68.51,8.6,71,20,5.82,CA,1604514672
121,deming,32.27,-107.76,73.4,23,1,5.82,US,1604514672
122,daru,-9.08,143.21,78.46,87,98,10.87,PG,1604514672
123,palmer,42.16,-72.33,59.0,46,1,6.93,US,1604514673
124,yellowknife,62.46,-114.35,0.0,84,75,3.36,CA,1604514603
125,cervo,43.67,-7.41,48.0,81,100,13.0,ES,1604514674
126,chimoio,-19.12,33.48,77.0,94,75,13.87,MZ,1604514674
127,katobu,-4.94,122.53,75.72,91,16,2.51,ID,1604514674
128,balabac,7.99,117.06,81.05,81,100,9.8,PH,1604514675
129,ahipara,-35.17,173.17,61.57,93,100,14.25,NZ,1604514675
130,tuy hoa,13.08,109.3,72.55,83,100,7.72,VN,1604514675
131,comodoro rivadavia,-45.87,-67.5,73.4,25,75,20.8,AR,1604514503
132,ballymena,54.86,-6.28,46.4,81,75,8.05,GB,1604514675
133,ostrovnoy,68.05,39.51,36.27,84,76,22.82,RU,1604514675
134,clyde river,70.47,-68.59,6.8,60,75,14.99,CA,1604514471
135,mahebourg,-20.41,57.7,71.6,78,75,9.17,MU,1604514676
136,eau claire,44.81,-91.5,68.0,32,1,9.17,US,1604514546
137,longyearbyen,78.22,15.64,32.0,94,75,19.46,SJ,1604514676
138,vaini,-21.2,-175.2,73.4,83,20,12.75,TO,1604514676
139,tasiilaq,65.61,-37.64,32.0,81,20,4.7,GL,1604514676
140,salisbury,51.07,-1.8,44.6,81,20,2.24,GB,1604514478
141,mar del plata,-38.0,-57.56,71.6,43,0,20.8,AR,1604514582
142,hermanus,-34.42,19.23,68.0,79,27,7.0,ZA,1604514562
143,shatrovo,56.52,64.63,35.28,86,4,12.59,RU,1604514676
144,eydhafushi,5.1,73.07,82.42,70,63,1.92,MV,1604514676
145,nanakuli,21.39,-158.15,80.6,74,1,4.7,US,1604514676
146,solnechnyy,50.72,136.63,18.66,84,9,1.3,RU,1604514677
147,kodiak,57.79,-152.41,28.4,50,20,8.05,US,1604514677
148,hiji,33.37,131.53,44.17,61,0,3.2,JP,1604514678
149,saint george,37.1,-113.58,62.6,19,1,3.36,US,1604514605
150,bambous virieux,-20.34,57.76,73.0,78,75,9.17,MU,1604514678
151,pauini,-7.71,-66.98,99.34,34,100,5.28,BR,1604514679
152,majene,-3.54,118.97,78.46,83,15,4.14,ID,1604514679
153,joensuu,62.6,29.76,43.0,86,0,6.93,FI,1604514679
154,avarua,-21.21,-159.78,71.6,88,95,24.67,CK,1604514679
155,el higo,21.77,-98.47,79.81,54,0,1.9,MX,1604514679
156,san patricio,28.02,-97.52,81.0,44,40,9.46,US,1604514680
157,vardo,70.37,31.11,37.4,79,75,35.57,NO,1604514680
158,ribeira grande,38.52,-28.7,60.8,72,75,12.75,PT,1604514680
159,jacareacanga,-6.22,-57.75,87.8,62,40,6.93,BR,1604514680
160,san policarpo,12.18,125.51,79.59,83,100,6.38,PH,1604514680
161,yaan,7.38,8.57,81.25,67,100,5.1,NG,1604514680
162,tual,-5.67,132.75,82.53,78,98,13.96,ID,1604514681
163,baruun-urt,46.68,113.28,21.29,86,77,2.55,MN,1604514681
164,biltine,14.53,20.92,83.32,19,1,9.33,TD,1604514681
165,ayagoz,47.97,80.44,22.91,89,100,2.86,KZ,1604514681
166,vung tau,10.35,107.08,78.06,85,100,8.66,VN,1604514682
167,lavrentiya,65.58,-171.0,22.86,96,100,8.3,RU,1604514682
168,torbay,47.67,-52.73,30.0,63,75,25.28,CA,1604514682
169,belmonte,-15.86,-38.88,71.6,88,90,5.82,BR,1604514682
170,fortuna,40.6,-124.16,68.0,51,1,4.21,US,1604514683
171,lingao,19.91,109.69,71.78,83,84,9.48,CN,1604514683
172,tabuleiro do norte,-5.25,-38.13,90.73,42,95,9.91,BR,1604514683
173,abilene,32.45,-99.73,73.0,46,1,20.8,US,1604514683
174,tuyen quang,21.82,105.22,66.97,76,93,1.57,VN,1604514683
175,tlacotepec,20.07,-97.87,67.17,45,44,6.38,MX,1604514683
176,westport,41.14,-73.36,62.01,51,1,6.93,US,1604514637
177,baiao,-2.79,-49.67,93.18,45,33,3.94,BR,1604514684
178,sinnamary,5.38,-52.95,83.66,72,78,11.54,GF,1604514684
179,nome,64.5,-165.41,6.8,77,75,3.36,US,1604514684
180,riyadh,24.69,46.72,73.4,28,0,3.36,SA,1604514617
181,orsha,54.52,30.41,45.09,91,100,9.69,BY,1604514684
182,cookeville,36.16,-85.5,68.0,30,1,8.05,US,1604514409
183,chuy,-33.7,-53.46,63.93,54,0,11.21,UY,1604514684
184,ancud,-41.87,-73.82,57.99,87,75,17.22,CL,1604514684
185,paita,-5.09,-81.11,75.2,64,0,14.99,PE,1604514684
186,cayenne,4.93,-52.33,78.8,100,97,5.82,GF,1604514685
187,cabo san lucas,22.89,-109.91,87.01,58,20,3.36,MX,1604514685
188,severo-kurilsk,50.68,156.12,36.52,89,96,27.22,RU,1604514685
189,abashiri,44.02,144.27,37.99,69,52,1.99,JP,1604514685
190,taltal,-25.4,-70.48,63.81,61,27,7.56,CL,1604514685
191,hofn,64.25,-15.21,51.8,43,40,19.46,IS,1604514685
192,necochea,-38.55,-58.74,78.01,44,95,25.01,AR,1604514686
193,bara,10.37,10.73,86.0,33,51,9.17,NG,1604514686
194,esperance,-33.87,121.9,48.2,81,100,5.82,AU,1604514686
195,eston,51.15,-108.75,55.4,46,75,14.99,CA,1604514602
196,krasnyy chikoy,50.36,108.75,26.4,96,100,2.3,RU,1604514686
197,udachnyy,66.42,112.4,-4.0,83,90,2.24,RU,1604514686
198,maridi,4.92,29.47,71.87,87,0,1.68,SS,1604514686
199,port lincoln,-34.73,135.87,53.6,62,80,11.05,AU,1604514686
200,buala,-8.14,159.59,81.19,78,100,6.8,SB,1604514687
201,narsaq,60.92,-46.05,30.2,86,75,5.82,GL,1604514687
202,scalea,39.81,15.8,62.69,70,19,2.21,IT,1604514687
203,mogadishu,2.04,45.34,79.27,84,44,12.73,SO,1604514687
204,yar-sale,66.83,70.83,21.76,98,100,10.4,RU,1604514678
205,ola,59.58,151.28,15.78,88,92,16.17,RU,1604514687
206,mamallapuram,12.63,80.17,80.6,94,75,4.7,IN,1604514687
207,idlib,35.93,36.63,60.8,100,75,3.36,SY,1604514687
208,saint-augustin,51.23,-58.65,29.46,72,100,18.86,CA,1604514688
209,dingle,11.0,122.67,76.06,89,100,2.59,PH,1604514688
210,faanui,-16.48,-151.75,79.61,79,94,16.53,PF,1604514688
211,belen,36.49,36.22,60.8,100,75,3.36,TR,1604514688
212,coracao de jesus,-16.69,-44.37,78.8,54,20,2.17,BR,1604514688
213,ponta do sol,32.67,-17.1,62.6,67,40,12.75,PT,1604514688
214,contramaestre,20.3,-76.24,86.0,62,75,11.41,CU,1604514688
215,kamenka,51.32,42.77,42.01,94,50,6.98,RU,1604514688
216,mount isa,-20.73,139.5,75.2,41,0,8.05,AU,1604514643
217,beian,63.66,9.57,44.6,87,75,31.09,NO,1604514688
218,sosva,59.18,61.86,35.2,89,98,9.55,RU,1604514689
219,pueblo nuevo,23.38,-105.38,79.43,31,34,3.56,MX,1604514689
220,bathsheba,13.22,-59.52,87.8,66,40,18.34,BB,1604514689
221,hithadhoo,-0.6,73.08,83.39,70,40,4.36,MV,1604514689
222,hovd,48.01,91.64,23.09,92,2,2.26,MN,1604514689
223,huancavelica,-12.77,-74.98,51.82,52,49,8.63,PE,1604514689
224,mukhen,48.1,136.1,25.52,86,93,12.03,RU,1604514689
225,rossland,49.08,-117.8,44.01,97,100,3.0,CA,1604514645
226,ust-barguzin,53.45,108.98,28.74,92,56,10.2,RU,1604514690
227,tilichiki,60.47,166.1,34.07,100,100,24.87,RU,1604514690
228,college,64.86,-147.8,-27.4,67,20,1.07,US,1604514690
229,brumadinho,-20.14,-44.2,80.6,47,75,6.93,BR,1604514690
230,zemaiciu naumiestis,55.36,21.7,49.03,75,58,11.99,LT,1604514690
231,kendari,-3.94,122.5,76.46,87,100,1.9,ID,1604514690
232,iralaya,15.0,-83.23,79.95,87,100,9.98,HN,1604514690
233,cherskiy,68.75,161.3,5.41,86,100,5.41,RU,1604514691
234,chiredzi,-21.05,31.67,71.91,78,82,3.74,ZW,1604514691
235,axim,4.87,-2.24,79.99,82,72,5.79,GH,1604514691
236,jalu,29.03,21.55,66.18,61,45,8.3,LY,1604514691
237,kulhudhuffushi,6.62,73.07,82.24,64,0,2.15,MV,1604514691
238,grand gaube,-20.01,57.66,73.0,70,73,5.01,MU,1604514691
239,okha,53.57,142.95,27.54,96,100,26.17,RU,1604514691
240,ternate,0.8,127.4,80.11,80,24,2.75,ID,1604514692
241,andenes,69.31,16.12,42.01,86,75,14.99,NO,1604514692
242,leningradskiy,69.38,178.42,3.7,78,72,7.56,RU,1604514692
243,souillac,-20.52,57.52,71.6,78,75,9.17,MU,1604514692
244,gizo,-8.1,156.84,82.63,76,100,8.37,SB,1604514693
245,cockburn town,21.46,-71.14,84.2,70,75,13.87,TC,1604514693
246,flinders,-34.58,150.86,66.99,83,100,5.01,AU,1604514693
247,lanxi,29.22,119.48,52.43,81,38,3.83,CN,1604514693
248,francisco sa,-16.48,-43.49,78.8,54,20,2.51,BR,1604514693
249,novyy urengoy,66.08,76.63,11.61,96,100,10.31,RU,1604514693
250,sorland,67.67,12.69,42.8,81,75,25.28,NO,1604514694
251,baculin,7.45,126.58,77.9,78,100,4.52,PH,1604514694
252,honningsvag,70.98,25.97,39.2,80,75,19.46,NO,1604514694
253,victoria,22.29,114.16,72.0,76,2,19.1,HK,1604514397
254,shaturtorf,55.57,39.42,41.2,94,73,5.73,RU,1604514694
255,port blair,11.67,92.75,80.89,79,5,4.9,IN,1604514694
256,tura,25.52,90.22,63.86,57,0,0.65,IN,1604514695
257,bengkulu,-3.8,102.27,75.49,87,100,4.76,ID,1604514695
258,ucluelet,48.93,-125.55,54.0,100,90,14.99,CA,1604514664
259,pisco,-13.7,-76.22,66.99,77,20,11.41,PE,1604514695
260,zalantun,48.0,122.72,25.11,90,0,5.44,CN,1604514695
261,reyes,-14.32,-67.38,100.4,37,20,3.36,BO,1604514695
262,poya,-21.35,165.15,72.03,84,61,2.68,NC,1604514695
263,gogrial,8.53,28.1,82.71,51,58,2.8,SS,1604514696
264,rohatyn,49.41,24.61,46.4,87,40,8.95,UA,1604514696
265,lompoc,34.64,-120.46,69.8,59,1,8.86,US,1604514450
266,mancio lima,-7.61,-72.9,95.0,53,75,5.82,BR,1604514696
267,naryan-mar,67.67,53.09,33.51,94,34,11.07,RU,1604514696
268,manzil salim,35.86,8.48,64.4,42,20,6.93,TN,1604514696
269,rio grande,-32.03,-52.1,69.8,46,75,17.22,BR,1604514626
270,rio rancho,35.23,-106.66,69.01,27,1,5.82,US,1604514543
271,hasaki,35.73,140.83,44.6,87,75,8.05,JP,1604514696
272,geraldton,-28.77,114.6,59.0,93,0,8.05,AU,1604514669
273,gat,31.61,34.76,68.0,16,16,4.0,IL,1604514482
274,barrow,71.29,-156.79,26.6,73,90,29.97,US,1604514649
275,kamennomostskiy,44.3,40.19,50.68,74,91,3.27,RU,1604514697
276,carauari,-4.88,-66.9,97.0,40,69,3.65,BR,1604514697
277,dicabisagan,17.08,122.42,75.51,84,100,10.94,PH,1604514697
278,sao filipe,14.9,-24.5,77.25,80,100,7.23,CV,1604514697
279,rancho palos verdes,33.74,-118.39,75.99,53,5,3.74,US,1604514697
280,tezu,27.92,96.17,65.01,82,29,4.83,IN,1604514698
281,nanortalik,60.14,-45.24,33.31,89,100,5.1,GL,1604514546
282,tatarskaya kargala,51.95,55.17,42.8,62,0,6.71,RU,1604514698
283,lebyazhye,55.27,66.49,35.13,86,0,14.12,RU,1604514698
284,aklavik,68.22,-135.01,5.0,84,90,5.82,CA,1604514698
285,camacha,33.08,-16.33,59.0,87,75,8.05,PT,1604514699
286,colares,38.8,-9.45,55.99,71,20,14.99,PT,1604514699
287,vila,42.03,-8.16,48.99,76,100,10.0,PT,1604514699
288,tarko-sale,64.92,77.78,20.19,97,100,10.94,RU,1604514699
289,barmer,25.75,71.38,74.79,40,0,8.77,IN,1604514699
290,roros,62.57,11.38,35.6,80,75,10.29,NO,1604514699
291,garissa,-0.45,39.64,82.04,61,62,18.68,KE,1604514700
292,maceio,-9.67,-35.74,86.0,66,20,11.41,BR,1604514700
293,saint-philippe,-21.36,55.77,73.4,60,20,11.41,RE,1604514700
294,tecoanapa,16.52,-98.75,85.89,46,88,7.23,MX,1604514700
295,dzhalil,55.02,52.74,35.58,85,0,1.32,RU,1604514700
296,qasigiannguit,68.82,-51.19,28.4,68,75,13.87,GL,1604514700
297,petropavlovsk-kamchatskiy,53.05,158.65,32.0,84,100,4.47,RU,1604514701
298,marinette,45.1,-87.63,66.2,42,1,12.75,US,1604514514
299,sukhobezvodnoye,57.05,44.89,38.79,97,100,5.39,RU,1604514701
300,umm kaddadah,13.6,26.69,81.95,19,0,17.63,SD,1604514701
301,pemberton,50.32,-122.8,42.8,100,90,6.6,CA,1604514423
302,meadow lake,34.8,-106.54,70.0,26,20,6.67,US,1604514701
303,deputatskiy,69.3,139.9,-19.95,83,0,0.72,RU,1604514701
304,anqing,30.51,117.05,57.65,62,48,2.08,CN,1604514702
305,dehloran,32.69,47.27,69.03,28,0,0.76,IR,1604514702
306,vestmannaeyjar,63.44,-20.27,46.4,87,90,23.04,IS,1604514702
307,qaanaaq,77.48,-69.36,-1.98,87,99,1.25,GL,1604514702
308,binga,-17.62,27.34,79.41,58,100,4.12,ZW,1604514702
309,marsaxlokk,35.84,14.54,68.0,82,20,2.24,MT,1604514702
310,leeton,-34.57,146.4,54.0,76,90,13.87,AU,1604514703
311,jiujiang,29.73,115.98,61.2,60,99,4.99,CN,1604514703
312,shingu,33.73,135.98,45.82,70,0,5.75,JP,1604514703
313,kavaratti,10.57,72.64,82.67,76,91,6.87,IN,1604514703
314,novoagansk,61.94,76.66,35.92,98,100,20.2,RU,1604514703
315,levelland,33.59,-102.38,79.0,27,75,17.22,US,1604514703
316,bilma,18.69,12.92,75.56,20,0,6.71,NE,1604514703
317,rocha,-34.48,-54.33,65.61,57,0,13.2,UY,1604514703
318,valparaiso,-33.04,-71.63,62.6,72,75,8.05,CL,1604514704
319,talen,23.57,76.72,65.25,28,0,2.53,IN,1604514704
320,arrifes,37.77,-25.7,59.0,72,40,10.29,PT,1604514704
321,yenagoa,4.92,6.26,76.93,92,100,2.44,NG,1604514704
322,vao,-22.67,167.48,72.95,85,0,8.08,NC,1604514704
323,hluti,-27.22,31.62,87.8,52,100,1.12,SZ,1604514704
324,fort nelson,58.81,-122.7,3.2,84,20,2.24,CA,1604514603
325,richards bay,-28.78,32.04,74.26,84,66,11.36,ZA,1604514460
326,castro,-24.79,-50.01,65.21,69,0,8.39,BR,1604514705
327,nemuro,43.32,145.57,42.69,72,24,20.22,JP,1604514705
328,manggar,-2.88,108.27,77.97,88,100,11.12,ID,1604514706
329,vega de alatorre,20.03,-96.63,78.93,58,10,14.92,MX,1604514706
330,cavalcante,-13.8,-47.46,78.13,68,49,4.79,BR,1604514708
331,luwuk,-0.95,122.79,77.85,75,0,2.71,ID,1604514708
332,meulaboh,4.14,96.13,76.06,88,100,4.09,ID,1604514709
333,amapa,1.0,-52.0,86.22,66,100,6.06,BR,1604514709
334,iranshahr,27.2,60.68,68.0,14,0,4.7,IR,1604514709
335,strai,58.2,7.9,46.99,75,0,13.87,NO,1604514709
336,chumphon,10.33,98.83,71.46,97,100,1.43,TH,1604514709
337,tiarei,-17.53,-149.33,82.4,74,40,17.22,PF,1604514709
338,dhar,22.6,75.3,66.2,42,0,4.7,IN,1604514709
339,vila franca do campo,37.72,-25.43,59.0,72,40,10.29,PT,1604514710
340,pierre,44.37,-100.35,66.99,31,1,6.93,US,1604514710
341,puerto escondido,15.85,-97.07,87.8,66,5,4.7,MX,1604514710
342,sao felix do xingu,-6.64,-51.99,86.34,67,100,3.31,BR,1604514710
343,mandal,25.45,74.57,68.68,24,0,3.27,IN,1604514710
344,gomel,52.43,30.98,42.8,93,75,8.95,BY,1604514710
345,cabedelo,-6.98,-34.83,86.0,62,0,13.87,BR,1604514710
346,ambajogai,18.73,76.38,66.25,52,0,3.69,IN,1604514711
347,los andes,-32.83,-70.6,75.99,91,100,3.0,CL,1604514711
348,quatre cocos,-20.21,57.76,73.0,78,75,9.17,MU,1604514711
349,kambove,-10.88,26.6,64.51,86,56,6.15,CD,1604514711
350,east london,-33.02,27.91,69.8,83,75,5.82,ZA,1604514711
351,te anau,-45.42,167.72,57.45,91,100,2.86,NZ,1604514711
352,nyaunglebin,17.95,96.73,73.8,93,32,3.13,MM,1604514711
353,buarcos,40.17,-8.88,55.0,62,40,6.93,PT,1604514712
354,cortes,41.94,-1.44,48.2,93,90,3.36,ES,1604514712
355,nova role,50.27,12.78,41.0,80,0,3.36,CZ,1604514712
356,tuatapere,-46.13,167.68,57.0,97,84,4.0,NZ,1604514712
357,okhotsk,59.38,143.3,17.4,91,97,22.17,RU,1604514712
358,port hardy,50.7,-127.42,50.0,93,75,8.05,CA,1604514601
359,nyurba,63.28,118.33,6.37,95,95,1.57,RU,1604514712
360,gori,41.98,44.12,56.88,70,100,7.25,GE,1604514712
361,ahuimanu,21.44,-157.84,80.6,78,75,4.7,US,1604514713
362,salina,38.84,-97.61,72.0,40,1,10.29,US,1604514612
363,mchinji,-13.8,32.88,75.27,39,28,9.8,MW,1604514713
364,kaitangata,-46.28,169.85,57.99,82,100,1.99,NZ,1604514713
365,kifri,34.7,44.97,71.85,28,100,4.59,IQ,1604514713
366,kenitra,34.26,-6.58,64.4,88,90,8.05,MA,1604514418
367,zenzeli,45.92,47.05,56.01,69,100,6.71,RU,1604514714
368,gazli,40.13,63.45,51.01,40,0,16.51,UZ,1604514714
369,los llanos de aridane,28.66,-17.92,66.2,82,75,10.29,ES,1604514714
370,esso,55.93,158.7,19.81,89,100,6.6,RU,1604514714
371,melioratorov,57.21,65.61,39.2,69,0,15.66,RU,1604514714
372,baglung,28.27,83.59,54.54,53,0,6.08,NP,1604514714
373,anloga,5.79,0.9,82.4,83,20,8.05,GH,1604514714
374,krasnogorsk,55.82,37.32,46.4,81,75,11.18,RU,1604514586
375,wuchang,44.91,127.15,28.4,86,0,7.4,CN,1604514715
376,havoysund,71.0,24.66,41.0,80,75,19.46,NO,1604514715
377,ilulissat,69.22,-51.1,28.4,68,75,13.87,GL,1604514715
378,stryn,61.9,6.72,41.0,93,75,5.82,NO,1604514715
379,gimli,50.63,-96.99,51.8,53,26,5.82,CA,1604514565
380,grenfell,-33.9,148.17,51.75,93,100,11.72,AU,1604514715
381,tucuma,-0.18,-50.05,84.52,75,100,6.71,BR,1604514715
382,mandan,46.83,-100.89,69.8,32,1,14.99,US,1604514716
383,casablanca,33.59,-7.62,64.4,82,75,4.7,MA,1604514586
384,tiksi,71.69,128.87,1.24,94,100,4.79,RU,1604514716
385,srednekolymsk,67.45,153.68,0.9,91,100,20.49,RU,1604514716
386,praia da vitoria,38.73,-27.07,59.0,82,75,18.45,PT,1604514716
387,pacifica,37.61,-122.49,66.0,82,20,3.36,US,1604514482
388,mayumba,-3.43,10.66,77.97,88,100,4.97,GA,1604514716
389,suratgarh,29.32,73.9,66.15,24,0,1.43,IN,1604514716
390,sitia,35.2,26.1,68.0,57,7,11.01,GR,1604514716
391,fare,-16.7,-151.02,79.38,81,96,13.35,PF,1604514716
392,sheopur,25.67,76.7,66.45,25,0,3.06,IN,1604514717
393,porto seguro,-16.45,-39.06,71.6,88,90,5.82,BR,1604514717
394,kahului,20.89,-156.47,80.6,69,40,6.62,US,1604514686
395,kemi,65.86,24.82,41.0,86,3,11.41,FI,1604514717
396,waipawa,-41.41,175.52,64.4,77,98,17.22,NZ,1604514717
397,aksu,41.12,80.26,39.25,60,50,0.31,CN,1604514717
398,dera bugti,29.03,69.15,63.93,24,0,1.77,PK,1604514717
399,hargeysa,9.56,44.06,62.98,90,6,9.91,SO,1604514718
400,eirunepe,-6.66,-69.87,95.54,41,97,3.2,BR,1604514718
401,baykit,61.67,96.37,18.45,94,100,3.89,RU,1604514718
402,horsham,51.06,-0.33,46.99,86,0,1.12,GB,1604514620
403,condado,21.88,-79.84,82.4,78,75,9.17,CU,1604514718
404,ginda,30.69,78.49,47.95,50,0,5.46,IN,1604514718
405,tjome,59.11,10.39,45.0,65,0,10.29,NO,1604514718
406,lamu,-2.27,40.9,78.8,78,1,6.93,KE,1604514719
407,visavadar,21.38,70.68,76.35,48,0,2.33,IN,1604514719
408,zyryanka,65.75,150.85,-3.98,91,100,26.24,RU,1604514719
409,sabang,5.89,95.32,81.52,75,100,3.33,ID,1604514720
410,villa rica,33.73,-84.92,66.99,36,1,6.93,US,1604514672
411,arlit,18.74,7.39,85.01,15,100,7.83,NE,1604514721
412,canakkale,40.08,26.83,57.2,58,20,5.82,TR,1604514721
413,saskylakh,71.92,114.08,-3.53,91,97,5.26,RU,1604514721
414,vilhena,-12.74,-60.15,93.2,32,98,4.7,BR,1604514578
415,grenada,37.19,-3.61,60.8,67,75,4.7,ES,1604514719
416,nizhniy kuranakh,58.84,125.49,12.78,95,99,3.74,RU,1604514721
417,bentonville,36.37,-94.21,71.6,32,1,14.99,US,1604514495
418,bireun,5.2,96.7,78.55,81,99,3.67,ID,1604514721
419,margate,51.38,1.39,51.01,66,0,7.31,GB,1604514617
420,isangel,-19.55,169.27,76.91,83,100,7.0,VU,1604514722
421,ziro,27.63,93.83,47.68,100,34,0.25,IN,1604514545
422,baijiantan,45.63,85.18,42.84,46,100,15.08,CN,1604514722
423,tocopilla,-22.09,-70.2,67.62,49,21,10.69,CL,1604514722
424,noumea,-22.28,166.46,71.6,94,90,3.36,NC,1604514722
425,samarai,-10.62,150.67,79.68,82,77,11.03,PG,1604514722
426,marzuq,14.4,46.47,62.1,30,0,1.86,YE,1604514724
427,balkanabat,39.51,54.37,66.02,22,98,16.4,TM,1604514724
428,west wendover,40.74,-114.07,57.2,30,1,1.48,US,1604514724
429,northam,51.03,-4.22,46.99,90,29,1.99,GB,1604514724
430,manicore,-5.81,-61.3,87.8,66,0,5.82,BR,1604514724
431,kenai,60.55,-151.26,-2.2,70,1,8.7,US,1604514724
432,nishihara,26.18,127.76,73.4,53,75,18.34,JP,1604514724
433,volchansk,59.94,60.08,35.96,90,100,9.48,RU,1604514724
434,walvis bay,-22.96,14.51,62.6,77,0,11.41,NA,1604514726
435,oriximina,-1.77,-55.87,93.31,47,35,3.27,BR,1604514726
436,tabas,33.6,56.92,64.4,20,0,4.7,IR,1604514726
437,winnemucca,40.97,-117.74,60.8,17,1,4.81,US,1604514684
438,lorengau,-2.02,147.27,80.96,77,96,3.76,PG,1604514726
439,baie-comeau,49.22,-68.15,30.2,68,75,8.05,CA,1604514726
440,carlos chagas,-17.7,-40.77,74.34,74,92,8.68,BR,1604514726
441,brae,60.4,-1.35,50.0,87,75,32.21,GB,1604514727
442,suntar,62.14,117.63,11.71,96,98,2.42,RU,1604514727
443,batagay-alyta,67.8,130.41,-1.68,90,93,3.04,RU,1604514727
444,san pedro,14.35,121.02,78.8,88,75,2.24,PH,1604514727
445,padang,-0.95,100.35,78.08,71,100,3.29,ID,1604514727
446,belyy yar,53.6,91.39,30.2,58,0,17.9,RU,1604514728
447,muros,42.78,-9.06,54.0,65,67,7.0,ES,1604514728
448,zhigansk,66.77,123.37,-0.74,92,100,6.6,RU,1604514728
449,chicama,-7.84,-79.15,66.2,72,20,14.99,PE,1604514728
450,taft,31.75,54.21,62.6,16,0,6.93,IR,1604514728
451,san roque,36.21,-5.38,62.6,93,100,11.41,ES,1604514728
452,broome,42.25,-75.83,64.0,38,1,13.87,US,1604514728
453,hope,33.67,-93.59,73.99,31,44,4.0,US,1604514510
454,olinda,-8.01,-34.86,86.0,66,40,10.29,BR,1604514729
455,wigston,52.59,-1.11,43.0,65,48,4.52,GB,1604514729
456,collie,-33.37,116.15,48.99,76,79,9.15,AU,1604514729
457,vanimo,-2.67,141.3,78.48,83,100,4.68,PG,1604514729
458,vyartsilya,62.18,30.69,43.21,93,100,4.54,RU,1604514729
459,matamoros,25.53,-103.25,75.2,29,5,4.72,MX,1604514730
460,ventspils,57.39,21.56,50.0,81,90,19.46,LV,1604514730
461,kavieng,-2.57,150.8,83.05,72,100,1.63,PG,1604514730
462,zhezkazgan,47.8,67.71,31.23,84,0,6.17,KZ,1604514730
463,carnot,4.94,15.87,74.43,76,69,4.16,CF,1604514730
464,boralday,43.36,76.86,32.0,64,40,4.47,KZ,1604514731
465,pangody,65.85,74.49,19.04,97,100,10.31,RU,1604514731
466,charlestown,-32.95,151.67,66.0,83,70,4.29,AU,1604514731
467,saint-francois,46.42,3.91,48.2,76,90,3.36,FR,1604514731
468,cidreira,-30.18,-50.21,64.6,54,5,11.65,BR,1604514731
469,san cristobal,7.77,-72.22,87.8,62,40,10.29,VE,1604514732
470,bend,44.06,-121.32,64.4,42,1,13.87,US,1604514496
471,kawalu,-7.38,108.21,72.18,91,85,1.19,ID,1604514732
472,codrington,-38.27,141.97,50.13,70,89,14.88,AU,1604514732
473,namibe,-15.2,12.15,69.62,70,0,8.88,AO,1604514733
474,tucumcari,35.17,-103.72,75.2,23,1,12.75,US,1604514733
475,aksarka,66.56,67.8,28.35,99,100,3.56,RU,1604514733
476,ponta delgada,37.73,-25.67,59.0,72,40,10.29,PT,1604514733
477,kolosovka,56.47,73.61,34.07,90,62,16.6,RU,1604514733
478,yarada,17.65,83.27,78.8,94,75,3.36,IN,1604514734
479,lagoa,39.05,-27.98,60.82,73,4,18.16,PT,1604514734
480,le port,-20.94,55.29,71.6,68,75,11.41,RE,1604514734
481,kaeo,-35.1,173.78,62.01,96,100,8.01,NZ,1604514734
482,campoverde,-8.48,-74.81,95.0,41,20,8.05,PE,1604514734
483,enshi,30.3,109.48,55.69,66,100,0.69,CN,1604514734
484,menongue,-14.66,17.69,73.08,44,0,6.15,AO,1604514735
485,alofi,-19.06,-169.92,75.2,83,14,12.75,NU,1604514735
486,tefe,-3.35,-64.71,95.0,56,20,3.36,BR,1604514735
487,yumen,40.28,97.2,36.7,62,0,16.58,CN,1604514735
488,kayunga,0.7,32.89,66.52,93,0,3.11,UG,1604514735
489,setermoen,68.86,18.35,41.0,84,40,6.93,NO,1604514735
490,shu,43.6,73.76,38.5,69,0,1.14,KZ,1604514735
491,bose,45.46,8.01,57.99,91,98,0.89,IT,1604514735
492,catalina foothills,32.3,-110.92,86.0,23,1,2.73,US,1604514736
493,nchelenge,-9.35,28.73,78.04,61,69,3.98,ZM,1604514736
494,esmeraldas,-19.76,-44.31,80.6,47,40,6.93,BR,1604514736
495,champerico,14.3,-91.92,89.6,62,40,6.93,GT,1604514736
496,trincomalee,8.57,81.23,82.22,74,98,3.38,LK,1604514736
497,chirongui,-12.93,45.15,78.8,78,0,3.36,YT,1604514736
498,kaspiyskiy,45.39,47.37,56.71,72,96,8.57,RU,1604514736
499,chara,56.91,118.26,10.72,83,100,1.32,RU,1604514737
500,la asuncion,11.03,-63.86,82.9,68,96,19.15,VE,1604514737
501,erenhot,43.65,111.98,35.29,70,0,9.91,CN,1604514737
502,babati,-4.22,35.75,68.54,66,8,5.06,TZ,1604514737
503,cheyenne,41.14,-104.82,68.0,24,1,23.04,US,1604514582
504,kismayo,-0.36,42.55,79.65,79,88,12.68,SO,1604514737
505,bow island,49.87,-111.37,62.6,48,3,16.11,CA,1604514737
506,bandarbeyla,9.49,50.81,76.44,72,0,16.11,SO,1604514737
507,pangai,-19.8,-174.35,75.2,78,20,23.04,TO,1604514738
508,moron,-34.65,-58.62,75.99,36,14,8.01,AR,1604514738
509,port-gentil,-0.72,8.78,78.21,87,100,8.08,GA,1604514738
510,tsaratanana,-16.78,47.65,74.84,47,53,2.39,MG,1604514738
511,tornio,65.85,24.15,41.0,86,0,11.41,FI,1604514738
512,dali,25.7,100.18,54.34,87,23,4.45,CN,1604514738
513,henties bay,-22.12,14.28,61.0,87,8,5.86,NA,1604514681
514,gambissara,13.24,-14.31,88.48,39,22,4.7,SN,1604514739
515,gore,-46.1,168.94,57.0,97,100,4.0,NZ,1604514740
516,zapolyarnyy,69.42,30.81,35.6,83,75,28.86,RU,1604514740
517,newport,51.59,-3.0,45.0,90,2,3.33,GB,1604514740
518,kananga,-5.9,22.42,72.91,88,100,1.74,CD,1604514740
519,hualmay,-11.1,-77.61,68.63,67,22,10.54,PE,1604514740
520,chuncheng,22.17,111.79,65.66,76,91,2.48,CN,1604514741
521,la quinta,33.66,-116.31,90.0,19,1,3.36,US,1604514677
522,la rioja,42.25,-2.5,50.0,71,75,4.7,ES,1604514741
523,karratha,-20.74,116.85,73.08,45,0,8.34,AU,1604514741
524,tautira,-17.73,-149.15,82.4,74,40,17.22,PF,1604514741
525,luba,3.46,8.55,80.6,94,40,8.05,GQ,1604514741
526,jutai,-5.18,-68.9,98.44,36,29,3.8,BR,1604514741
527,murmino,54.6,40.05,46.99,89,89,3.0,RU,1604514742
528,paarl,-33.73,18.98,72.0,64,20,19.46,ZA,1604514590
529,charkhari,25.4,79.75,68.0,25,0,3.38,IN,1604514742
530,kudahuvadhoo,2.67,72.89,82.8,70,42,2.91,MV,1604514742
531,saint anthony,45.02,-93.22,68.0,29,1,9.17,US,1604514742
532,ust-tsilma,65.44,52.15,38.12,85,92,6.8,RU,1604514742
533,urucara,-2.54,-57.76,89.35,55,100,1.99,BR,1604514742
534,maxixe,-23.86,35.35,77.0,88,40,13.87,MZ,1604514742
535,kentau,43.52,68.51,46.31,46,0,11.48,KZ,1604514742
536,kontagora,10.4,5.47,84.15,27,100,8.34,NG,1604514742
537,duku,11.24,4.91,86.22,28,100,8.3,NG,1604514743
538,barcelos,41.54,-8.62,55.4,58,0,9.17,PT,1604514743
539,camopi,3.17,-52.32,83.59,74,100,5.95,GF,1604514743
540,kungurtug,50.6,97.52,12.24,90,55,2.71,RU,1604514743
541,bambanglipuro,-7.95,110.28,78.19,85,75,2.82,ID,1604514743
542,enumclaw,47.2,-121.99,63.0,83,100,7.11,US,1604514743
543,ulaangom,49.98,92.07,21.34,80,77,3.94,MN,1604514744
544,batemans bay,-35.72,150.18,55.0,96,100,4.0,AU,1604514744
545,bima,-8.47,118.72,77.63,86,1,3.56,ID,1604514744
546,bonthe,7.53,-12.51,79.41,85,95,5.66,SL,1604514744
547,terre-de-bas,15.85,-61.64,84.2,78,48,16.11,GP,1604514744
548,chadan,51.28,91.58,21.24,80,100,1.1,RU,1604514744
549,scarborough,54.28,-0.4,39.99,82,20,6.91,GB,1604514745
550,susanville,40.42,-120.65,57.2,16,1,3.4,US,1604514745
551,sovetskaya gavan,48.97,140.29,25.11,79,0,11.45,RU,1604514745
552,sarlat-la-caneda,44.89,1.22,44.01,72,75,5.7,FR,1604514745
553,banda aceh,5.56,95.32,79.2,80,100,3.33,ID,1604514745
554,genc,38.75,40.56,53.73,73,100,5.53,TR,1604514745
555,sandwick,60.0,-1.25,50.0,87,75,32.21,GB,1604514745
556,sao francisco de assis,-29.55,-55.13,72.37,43,0,14.83,BR,1604514745
557,atambua,-9.11,124.89,74.89,80,24,3.04,ID,1604514745
558,tondano,1.3,124.91,73.4,94,40,1.45,ID,1604514747
559,gaziantep,37.06,37.38,55.4,87,75,2.24,TR,1604514747
560,taoudenni,22.68,-3.98,79.23,16,0,3.85,ML,1604514747
561,acandi,8.51,-77.28,86.94,61,55,3.98,CO,1604514747
562,zaraza,9.35,-65.32,82.81,85,100,3.96,VE,1604514747
563,okoneshnikovo,54.84,75.08,36.03,83,99,17.9,RU,1604514747
564,cap malheureux,-19.98,57.61,73.0,70,65,5.01,MU,1604514748
565,kargasok,59.06,80.86,34.21,97,100,17.96,RU,1604514725
566,kalmunai,7.42,81.82,79.39,77,99,1.14,LK,1604514748
567,pacific grove,36.62,-121.92,64.4,63,1,3.36,US,1604514748
568,joshimath,30.57,79.57,45.46,51,0,3.44,IN,1604514749
569,ovsyanka,55.96,92.55,26.6,86,75,11.18,RU,1604514749
570,dabola,10.75,-11.12,79.12,59,0,2.44,GN,1604514749
571,vila velha,-20.33,-40.29,73.4,78,90,5.82,BR,1604514750
572,kyra,49.58,111.98,24.55,91,100,1.77,RU,1604514750
573,waingapu,-9.66,120.26,80.46,75,35,2.86,ID,1604514750
